name,lat,lon
REBEL,43.64078,-79.35497
CODA,43.6654064,-79.4114651
The Fifth Social Club,43.64912,-79.38922
El Convento Rico,43.65519,-79.41961
Lavelle,43.643917,-79.40152
Bar Raval,43.6558235,-79.4099149
BarChef,43.648167,-79.400177
Madison Avenue Pub,43.66787,-79.40347
Sneaky Dee's,43.65629444444444,-79.40743055555556
History,43.6667773,-79.3136555
